{
  "total_stations": 253,
  "source": "IMHPA - https://www.imhpa.gob.pa/es/estaciones-meteorologicas",
  "last_updated": "2025-12-16",
  "stations": [
    {
      "numero": "91-026",
      "name": "CHANGUINOLA SUR",
      "provincia": "BOCAS DEL TORO",
      "tipo": "AM",
      "elevation": 400,
      "lat": 8.960556,
      "lon": -82.424444,
      "id": 1,
      "region": "BOCAS DEL TORO"
    },
    {
      "numero": "91-027",
      "name": "CHANGUINOLA SIERRA",
      "provincia": "BOCAS DEL TORO",
      "tipo": "CA",
      "elevation": 1220,
      "lat": 8.853333,
      "lon": -82.406667,
      "id": 2,
      "region": "BOCAS DEL TORO"
    },
    {
      "numero": "91-029",
      "name": "CHANGUINOLA 2",
      "provincia": "BOCAS DEL TORO",
      "tipo": "CA",
      "elevation": 1800,
      "lat": 8.930278,
      "lon": -82.689722,
      "id": 3,
      "region": "BOCAS DEL TORO"
    },
    {
      "numero": "91-030",
      "name": "EL SILENCIO",
      "provincia": "BOCAS DEL TORO",
      "tipo": "CC",
      "elevation": 20,
      "lat": 9.349722,
      "lon": -82.549722,
      "id": 4,
      "region": "BOCAS DEL TORO"
    },
    {
      "numero": "91-032",
      "name": "CHANGUINOLA ARRIBA",
      "provincia": "BOCAS DEL TORO",
      "tipo": "AA",
      "elevation": 152,
      "lat": 9.121667,
      "lon": -82.502222,
      "id": 5,
      "region": "BOCAS DEL TORO"
    },
    {
      "numero": "91-033",
      "name": "SE CHANGUINOLA",
      "provincia": "BOCAS DEL TORO",
      "tipo": "AA",
      "elevation": 22,
      "lat": 9.406667,
      "lon": -82.563889,
      "id": 6,
      "region": "BOCAS DEL TORO"
    },
    {
      "numero": "93-002",
      "name": "AEROPUERTO DE BOCAS",
      "provincia": "BOCAS DEL TORO",
      "tipo": "AM",
      "elevation": 2,
      "lat": 9.340278,
      "lon": -82.245,
      "id": 7,
      "region": "BOCAS DEL TORO"
    },
    {
      "numero": "93-007",
      "name": "MIRAMAR",
      "provincia": "BOCAS DEL TORO",
      "tipo": "BA",
      "elevation": 23,
      "lat": 9.001667,
      "lon": -82.259167,
      "id": 8,
      "region": "BOCAS DEL TORO"
    },
    {
      "numero": "93-008",
      "name": "CHIRIQUI GRANDE 2",
      "provincia": "BOCAS DEL TORO",
      "tipo": "AA",
      "elevation": 48,
      "lat": 8.949167,
      "lon": -82.116667,
      "id": 9,
      "region": "BOCAS DEL TORO"
    },
    {
      "numero": "95-001",
      "name": "CANQUINTU",
      "provincia": "BOCAS DEL TORO",
      "tipo": "CA",
      "elevation": 69,
      "lat": 8.853333,
      "lon": -81.816389,
      "id": 10,
      "region": "BOCAS DEL TORO"
    },
    {
      "numero": "95-002",
      "name": "CUSAPIN",
      "provincia": "BOCAS DEL TORO",
      "tipo": "CM",
      "elevation": 2,
      "lat": 9.178333,
      "lon": -81.889167,
      "id": 11,
      "region": "BOCAS DEL TORO"
    },
    {
      "numero": "95-003",
      "name": "SANTA CATALINA",
      "provincia": "BOCAS DEL TORO",
      "tipo": "CM",
      "elevation": 2,
      "lat": 8.781667,
      "lon": -81.339444,
      "id": 12,
      "region": "BOCAS DEL TORO"
    },
    {
      "numero": "97-003",
      "name": "GUABAL",
      "provincia": "VERAGUAS",
      "tipo": "CM",
      "elevation": 100,
      "lat": 8.5775,
      "lon": -81.203056,
      "id": 13,
      "region": "VERAGUAS"
    },
    {
      "numero": "97-004",
      "name": "RIO LUIS",
      "provincia": "VERAGUAS",
      "tipo": "CM",
      "elevation": 100,
      "lat": 8.683056,
      "lon": -81.219167,
      "id": 14,
      "region": "VERAGUAS"
    },
    {
      "numero": "100-037",
      "name": "SE PROGRESO",
      "provincia": "CHIRIQUI",
      "tipo": "AA",
      "elevation": 10,
      "lat": 8.439167,
      "lon": -82.818056,
      "id": 15,
      "region": "CHIRIQUI"
    },
    {
      "numero": "100-138",
      "name": "LIMONES 2",
      "provincia": "CHIRIQUI",
      "tipo": "AA",
      "elevation": 58,
      "lat": 8.104444,
      "lon": -82.868056,
      "id": 16,
      "region": "CHIRIQUI"
    },
    {
      "numero": "100-139",
      "name": "LA ESPERANZA",
      "provincia": "CHIRIQUI",
      "tipo": "AA",
      "elevation": 18,
      "lat": 8.404444,
      "lon": -82.79,
      "id": 17,
      "region": "CHIRIQUI"
    },
    {
      "numero": "102-001",
      "name": "CERRO PUNTA",
      "provincia": "CHIRIQUI",
      "tipo": "CC",
      "elevation": 1830,
      "lat": 8.866667,
      "lon": -82.583056,
      "id": 18,
      "region": "CHIRIQUI"
    },
    {
      "numero": "102-009",
      "name": "BAJO GRANDE",
      "provincia": "CHIRIQUI",
      "tipo": "BC",
      "elevation": 2300,
      "lat": 8.849722,
      "lon": -82.549722,
      "id": 19,
      "region": "CHIRIQUI"
    },
    {
      "numero": "102-014",
      "name": "CAÑAS GORDAS",
      "provincia": "CHIRIQUI",
      "tipo": "CA",
      "elevation": 1158,
      "lat": 8.75,
      "lon": -82.910833,
      "id": 20,
      "region": "CHIRIQUI"
    },
    {
      "numero": "102-015",
      "name": "BRENON",
      "provincia": "CHIRIQUI",
      "tipo": "CC",
      "elevation": 700,
      "lat": 8.635278,
      "lon": -82.828889,
      "id": 21,
      "region": "CHIRIQUI"
    },
    {
      "numero": "102-016",
      "name": "GOMEZ ARRIBA",
      "provincia": "CHIRIQUI",
      "tipo": "CC",
      "elevation": 380,
      "lat": 8.566667,
      "lon": -82.733056,
      "id": 22,
      "region": "CHIRIQUI"
    },
    {
      "numero": "102-017",
      "name": "SANTA CRUZ",
      "provincia": "CHIRIQUI",
      "tipo": "CM",
      "elevation": 670,
      "lat": 8.65,
      "lon": -82.766667,
      "id": 23,
      "region": "CHIRIQUI"
    },
    {
      "numero": "102-019",
      "name": "COTITO",
      "provincia": "CHIRIQUI",
      "tipo": "CA",
      "elevation": 1900,
      "lat": 8.878056,
      "lon": -82.705556,
      "id": 24,
      "region": "CHIRIQUI"
    },
    {
      "numero": "102-020",
      "name": "PIEDRA CANDELA",
      "provincia": "CHIRIQUI",
      "tipo": "CC",
      "elevation": 1440,
      "lat": 8.876389,
      "lon": -82.775833,
      "id": 25,
      "region": "CHIRIQUI"
    },
    {
      "numero": "102-035",
      "name": "CHIRIQUI VIEJO VOLCAN",
      "provincia": "CHIRIQUI",
      "tipo": "CA",
      "elevation": 1537,
      "lat": 8.8125,
      "lon": -82.628056,
      "id": 26,
      "region": "CHIRIQUI"
    },
    {
      "numero": "102-040",
      "name": "CERRO PUNTA 2",
      "provincia": "CHIRIQUI",
      "tipo": "CA",
      "elevation": 1874,
      "lat": 8.857222,
      "lon": -82.587778,
      "id": 27,
      "region": "CHIRIQUI"
    },
    {
      "numero": "102-041",
      "name": "PIEDRA CANDELA 2",
      "provincia": "CHIRIQUI",
      "tipo": "CA",
      "elevation": 1338,
      "lat": 8.874444,
      "lon": -82.778333,
      "id": 28,
      "region": "CHIRIQUI"
    },
    {
      "numero": "103-002",
      "name": "BELEN 2",
      "provincia": "COLON",
      "tipo": "CA",
      "elevation": 3,
      "lat": 8.883056,
      "lon": -80.869167,
      "id": 29,
      "region": "COLON"
    },
    {
      "numero": "104-001",
      "name": "CUESTA DE PIEDRA",
      "provincia": "CHIRIQUI",
      "tipo": "CM",
      "elevation": 1000,
      "lat": 8.676944,
      "lon": -82.624444,
      "id": 30,
      "region": "CHIRIQUI"
    },
    {
      "numero": "104-008",
      "name": "SORTOVA",
      "provincia": "CHIRIQUI",
      "tipo": "CA",
      "elevation": 400,
      "lat": 8.546389,
      "lon": -82.651111,
      "id": 31,
      "region": "CHIRIQUI"
    },
    {
      "numero": "105-001",
      "name": "BOCA DE TOABRE",
      "provincia": "COCLE",
      "tipo": "CM",
      "elevation": 170,
      "lat": 8.916667,
      "lon": -80.549722,
      "id": 32,
      "region": "COCLE"
    },
    {
      "numero": "105-002",
      "name": "CHIGUIRI ARRIBA",
      "provincia": "COCLE",
      "tipo": "CC",
      "elevation": 180,
      "lat": 8.672778,
      "lon": -80.1875,
      "id": 33,
      "region": "COCLE"
    },
    {
      "numero": "105-003",
      "name": "COCLE DEL NORTE",
      "provincia": "COLON",
      "tipo": "CM",
      "elevation": 2,
      "lat": 9.073056,
      "lon": -80.572778,
      "id": 34,
      "region": "COLON"
    },
    {
      "numero": "105-005",
      "name": "TOABRE",
      "provincia": "COCLE",
      "tipo": "BC",
      "elevation": 200,
      "lat": 8.640833,
      "lon": -80.349167,
      "id": 35,
      "region": "COCLE"
    },
    {
      "numero": "105-007",
      "name": "SAN LUCAS",
      "provincia": "COLON",
      "tipo": "BC",
      "elevation": 30,
      "lat": 9.006667,
      "lon": -80.581667,
      "id": 36,
      "region": "COLON"
    },
    {
      "numero": "105-008",
      "name": "SABANITA VERDE",
      "provincia": "COLON",
      "tipo": "CM",
      "elevation": 100,
      "lat": 8.816389,
      "lon": -80.376667,
      "id": 37,
      "region": "COLON"
    },
    {
      "numero": "105-010",
      "name": "SANTA ANA(OBRE)",
      "provincia": "COCLE",
      "tipo": "CC",
      "elevation": 200,
      "lat": 8.816667,
      "lon": -80.266667,
      "id": 38,
      "region": "COCLE"
    },
    {
      "numero": "105-023",
      "name": "LOS DARIELES",
      "provincia": "COCLE",
      "tipo": "AA",
      "elevation": 177,
      "lat": 8.816667,
      "lon": -80.266667,
      "id": 39,
      "region": "COCLE"
    },
    {
      "numero": "105-028",
      "name": "SAN LUCAS 2",
      "provincia": "COLON",
      "tipo": "AA",
      "elevation": 90,
      "lat": 9.006389,
      "lon": -80.565278,
      "id": 40,
      "region": "COLON"
    },
    {
      "numero": "105-029",
      "name": "TOABRE 2",
      "provincia": "COCLE",
      "tipo": "AA",
      "elevation": 200,
      "lat": 8.640833,
      "lon": -80.349167,
      "id": 41,
      "region": "COCLE"
    },
    {
      "numero": "106-004",
      "name": "MACANO ARRIBA",
      "provincia": "CHIRIQUI",
      "tipo": "CM",
      "elevation": 520,
      "lat": 8.611944,
      "lon": -82.586389,
      "id": 42,
      "region": "CHIRIQUI"
    },
    {
      "numero": "106-013",
      "name": "CORDILLERA ARRIBA",
      "provincia": "CHIRIQUI",
      "tipo": "AG",
      "elevation": 1446,
      "lat": 8.752222,
      "lon": -82.610278,
      "id": 43,
      "region": "CHIRIQUI"
    },
    {
      "numero": "106-014",
      "name": "QUEREVALO_2",
      "provincia": "CHIRIQUI",
      "tipo": "AA",
      "elevation": 18,
      "lat": 8.350556,
      "lon": -82.5125,
      "id": 44,
      "region": "CHIRIQUI"
    },
    {
      "numero": "108-001",
      "name": "FINCA LERIDA",
      "provincia": "CHIRIQUI",
      "tipo": "CC",
      "elevation": 1700,
      "lat": 8.8,
      "lon": -82.483056,
      "id": 45,
      "region": "CHIRIQUI"
    },
    {
      "numero": "108-002",
      "name": "EL VALLE",
      "provincia": "CHIRIQUI",
      "tipo": "CA",
      "elevation": 40,
      "lat": 8.426667,
      "lon": -82.337778,
      "id": 46,
      "region": "CHIRIQUI"
    },
    {
      "numero": "108-004",
      "name": "CALDERA(PUEBLO NUEVO)",
      "provincia": "CHIRIQUI",
      "tipo": "CA",
      "elevation": 365,
      "lat": 8.653056,
      "lon": -82.381667,
      "id": 47,
      "region": "CHIRIQUI"
    },
    {
      "numero": "108-009",
      "name": "LOS PALOMOS",
      "provincia": "CHIRIQUI",
      "tipo": "CC",
      "elevation": 420,
      "lat": 8.583056,
      "lon": -82.466667,
      "id": 48,
      "region": "CHIRIQUI"
    },
    {
      "numero": "108-013",
      "name": "ANGOSTURA DE COCHEA",
      "provincia": "CHIRIQUI",
      "tipo": "CM",
      "elevation": 210,
      "lat": 8.566667,
      "lon": -82.383056,
      "id": 49,
      "region": "CHIRIQUI"
    },
    {
      "numero": "108-014",
      "name": "VELADERO GUALACA",
      "provincia": "CHIRIQUI",
      "tipo": "CC",
      "elevation": 45,
      "lat": 8.430556,
      "lon": -82.286667,
      "id": 50,
      "region": "CHIRIQUI"
    },
    {
      "numero": "108-015",
      "name": "CERMENO",
      "provincia": "CHIRIQUI",
      "tipo": "CM",
      "elevation": 170,
      "lat": 8.520278,
      "lon": -82.432778,
      "id": 51,
      "region": "CHIRIQUI"
    },
    {
      "numero": "108-017",
      "name": "LOS NARANJOS",
      "provincia": "CHIRIQUI",
      "tipo": "AG",
      "elevation": 1200,
      "lat": 8.792222,
      "lon": -82.440556,
      "id": 52,
      "region": "CHIRIQUI"
    },
    {
      "numero": "108-018",
      "name": "PAJA DE SOMBRERO",
      "provincia": "CHIRIQUI",
      "tipo": "BC",
      "elevation": 388,
      "lat": 8.685278,
      "lon": -82.320556,
      "id": 53,
      "region": "CHIRIQUI"
    },
    {
      "numero": "108-019",
      "name": "FORTUNA",
      "provincia": "CHIRIQUI",
      "tipo": "CC",
      "elevation": 1040,
      "lat": 8.743889,
      "lon": -82.249167,
      "id": 54,
      "region": "CHIRIQUI"
    },
    {
      "numero": "108-020",
      "name": "QUEBRADA BIJAO",
      "provincia": "CHIRIQUI",
      "tipo": "CA",
      "elevation": 1080,
      "lat": 8.745278,
      "lon": -82.165556,
      "id": 55,
      "region": "CHIRIQUI"
    },
    {
      "numero": "108-022",
      "name": "HORNITOS",
      "provincia": "CHIRIQUI",
      "tipo": "CA",
      "elevation": 1340,
      "lat": 8.718056,
      "lon": -82.228056,
      "id": 56,
      "region": "CHIRIQUI"
    },
    {
      "numero": "108-023",
      "name": "DAVID",
      "provincia": "CHIRIQUI",
      "tipo": "AC",
      "elevation": 27,
      "lat": 8.396667,
      "lon": -82.428056,
      "id": 57,
      "region": "CHIRIQUI"
    },
    {
      "numero": "108-042",
      "name": "FORTUNA (CASA CONTROL)",
      "provincia": "CHIRIQUI",
      "tipo": "CA",
      "elevation": 1062,
      "lat": 8.679167,
      "lon": -82.261667,
      "id": 58,
      "region": "CHIRIQUI"
    },
    {
      "numero": "108-043",
      "name": "GUALACA II",
      "provincia": "CHIRIQUI",
      "tipo": "BC",
      "elevation": 100,
      "lat": 8.521944,
      "lon": -82.300556,
      "id": 59,
      "region": "CHIRIQUI"
    },
    {
      "numero": "108-046",
      "name": "LONDRES (GUALACA)",
      "provincia": "CHIRIQUI",
      "tipo": "AA",
      "elevation": 511,
      "lat": 8.602778,
      "lon": -82.185,
      "id": 60,
      "region": "CHIRIQUI"
    },
    {
      "numero": "108-048",
      "name": "BELLA VISTA 2",
      "provincia": "CHIRIQUI",
      "tipo": "AA",
      "elevation": 724,
      "lat": 8.601667,
      "lon": -82.230556,
      "id": 61,
      "region": "CHIRIQUI"
    },
    {
      "numero": "108-049",
      "name": "SE GUASQUITAS",
      "provincia": "CHIRIQUI",
      "tipo": "AA",
      "elevation": 132,
      "lat": 8.541389,
      "lon": -82.294444,
      "id": 62,
      "region": "CHIRIQUI"
    },
    {
      "numero": "108-053",
      "name": "BOQUETE",
      "provincia": "CHIRIQUI",
      "tipo": "AA",
      "elevation": 1398,
      "lat": 8.755,
      "lon": -82.431389,
      "id": 63,
      "region": "CHIRIQUI"
    },
    {
      "numero": "108-058",
      "name": "RIO HORNITOS 2",
      "provincia": "CHIRIQUI",
      "tipo": "CA",
      "elevation": 1100,
      "lat": 8.718056,
      "lon": -82.228056,
      "id": 64,
      "region": "CHIRIQUI"
    },
    {
      "numero": "108-060",
      "name": "DOLEGA (PUEBLO NUEVO)",
      "provincia": "CHIRIQUI",
      "tipo": "AG",
      "elevation": 275,
      "lat": 8.602778,
      "lon": -82.38,
      "id": 65,
      "region": "CHIRIQUI"
    },
    {
      "numero": "108-061",
      "name": "LOS MOLINOS",
      "provincia": "CHIRIQUI",
      "tipo": "CA",
      "elevation": 2800,
      "lat": 8.661667,
      "lon": -82.450556,
      "id": 66,
      "region": "CHIRIQUI"
    },
    {
      "numero": "109-001",
      "name": "MIGUEL DE LA BORDA",
      "provincia": "COLON",
      "tipo": "CA",
      "elevation": 2,
      "lat": 9.153333,
      "lon": -80.299444,
      "id": 67,
      "region": "COLON"
    },
    {
      "numero": "109-003",
      "name": "MANSUETO",
      "provincia": "COLON",
      "tipo": "AA",
      "elevation": 14,
      "lat": 9.165278,
      "lon": -80.280556,
      "id": 68,
      "region": "COLON"
    },
    {
      "numero": "110-003",
      "name": "CERRO BANCO",
      "provincia": "CHIRIQUI",
      "tipo": "CC",
      "elevation": 340,
      "lat": 8.453333,
      "lon": -82.034167,
      "id": 69,
      "region": "CHIRIQUI"
    },
    {
      "numero": "110-008",
      "name": "SOLOY",
      "provincia": "CHIRIQUI",
      "tipo": "CA",
      "elevation": 600,
      "lat": 8.484167,
      "lon": -82.085833,
      "id": 70,
      "region": "CHIRIQUI"
    },
    {
      "numero": "111-005",
      "name": "URACILLO (RIO INDIO)",
      "provincia": "COCLE",
      "tipo": "CA",
      "elevation": 60,
      "lat": 8.966667,
      "lon": -80.176667,
      "id": 71,
      "region": "COCLE"
    },
    {
      "numero": "111-008",
      "name": "LOS CHORROS 2",
      "provincia": "PANAMA",
      "tipo": "CA",
      "elevation": 270,
      "lat": 8.761944,
      "lon": -80.126944,
      "id": 72,
      "region": "PANAMA"
    },
    {
      "numero": "112-003",
      "name": "SAN FELIX",
      "provincia": "CHIRIQUI",
      "tipo": "CC",
      "elevation": 110,
      "lat": 8.286944,
      "lon": -81.873056,
      "id": 73,
      "region": "CHIRIQUI"
    },
    {
      "numero": "112-004",
      "name": "QUEBRADA LORO",
      "provincia": "CHIRIQUI",
      "tipo": "CC",
      "elevation": 390,
      "lat": 8.366667,
      "lon": -81.9,
      "id": 74,
      "region": "CHIRIQUI"
    },
    {
      "numero": "112-014",
      "name": "RATON",
      "provincia": "CHIRIQUI",
      "tipo": "AM",
      "elevation": 1520,
      "lat": 8.539722,
      "lon": -81.819167,
      "id": 75,
      "region": "CHIRIQUI"
    },
    {
      "numero": "112-015",
      "name": "VELADERO TOLE",
      "provincia": "CHIRIQUI",
      "tipo": "AG",
      "elevation": 0,
      "lat": 8.244444,
      "lon": -81.665556,
      "id": 76,
      "region": "CHIRIQUI"
    },
    {
      "numero": "113-001",
      "name": "ICACAL",
      "provincia": "COLON",
      "tipo": "BC",
      "elevation": 11,
      "lat": 9.204444,
      "lon": -80.145833,
      "id": 77,
      "region": "COLON"
    },
    {
      "numero": "113-008",
      "name": "ICACAL 2",
      "provincia": "COLON",
      "tipo": "AA",
      "elevation": 8,
      "lat": 9.198889,
      "lon": -80.151667,
      "id": 78,
      "region": "COLON"
    },
    {
      "numero": "114-002",
      "name": "CAMARON TABASARA",
      "provincia": "CHIRIQUI",
      "tipo": "CM",
      "elevation": 20,
      "lat": 8.0625,
      "lon": -81.650278,
      "id": 79,
      "region": "CHIRIQUI"
    },
    {
      "numero": "114-006",
      "name": "PENA BLANCA",
      "provincia": "CHIRIQUI",
      "tipo": "CA",
      "elevation": 870,
      "lat": 8.469444,
      "lon": -81.688333,
      "id": 80,
      "region": "CHIRIQUI"
    },
    {
      "numero": "114-007",
      "name": "CERRO IGLESIA",
      "provincia": "CHIRIQUI",
      "tipo": "CC",
      "elevation": 370,
      "lat": 8.290556,
      "lon": -81.565278,
      "id": 81,
      "region": "CHIRIQUI"
    },
    {
      "numero": "114-010",
      "name": "OJO DE AGUA",
      "provincia": "VERAGUAS",
      "tipo": "AM",
      "elevation": 358,
      "lat": 8.199167,
      "lon": -81.521944,
      "id": 82,
      "region": "VERAGUAS"
    },
    {
      "numero": "114-013",
      "name": "LLANO TUGRI",
      "provincia": "GNABE BUGLE",
      "tipo": "AG",
      "elevation": 1225,
      "lat": 8.480833,
      "lon": -81.717222,
      "id": 83,
      "region": "GNABE BUGLE"
    },
    {
      "numero": "115-001",
      "name": "AGUA CLARA",
      "provincia": "COLON",
      "tipo": "CA",
      "elevation": 460,
      "lat": 9.364167,
      "lon": -79.705833,
      "id": 84,
      "region": "COLON"
    },
    {
      "numero": "115-002",
      "name": "BARRO COLORADO",
      "provincia": "PANAMA",
      "tipo": "CA",
      "elevation": 34,
      "lat": 9.165278,
      "lon": -79.836389,
      "id": 85,
      "region": "PANAMA"
    },
    {
      "numero": "115-003",
      "name": "CANDELARIA",
      "provincia": "PANAMA",
      "tipo": "CA",
      "elevation": 98,
      "lat": 9.382778,
      "lon": -79.516389,
      "id": 86,
      "region": "PANAMA"
    },
    {
      "numero": "115-004",
      "name": "CHICO",
      "provincia": "PANAMA",
      "tipo": "CA",
      "elevation": 104,
      "lat": 9.263333,
      "lon": -79.509444,
      "id": 87,
      "region": "PANAMA"
    },
    {
      "numero": "115-005",
      "name": "CIENTO",
      "provincia": "COLON",
      "tipo": "CA",
      "elevation": 38,
      "lat": 9.297778,
      "lon": -79.728056,
      "id": 88,
      "region": "COLON"
    },
    {
      "numero": "115-007",
      "name": "EL CHORRO",
      "provincia": "PANAMA",
      "tipo": "CA",
      "elevation": 43,
      "lat": 8.975556,
      "lon": -79.990278,
      "id": 89,
      "region": "PANAMA"
    },
    {
      "numero": "115-008",
      "name": "ESCANDALOSA",
      "provincia": "COLON",
      "tipo": "CA",
      "elevation": 480,
      "lat": 9.423333,
      "lon": -79.578056,
      "id": 90,
      "region": "COLON"
    },
    {
      "numero": "115-010",
      "name": "GAMBOA",
      "provincia": "COLON",
      "tipo": "AA",
      "elevation": 31,
      "lat": 9.111944,
      "lon": -79.693889,
      "id": 91,
      "region": "COLON"
    },
    {
      "numero": "115-011",
      "name": "GATUN RAIN Z.C.",
      "provincia": "COLON",
      "tipo": "AA",
      "elevation": 31,
      "lat": 9.268056,
      "lon": -79.920556,
      "id": 92,
      "region": "COLON"
    },
    {
      "numero": "115-014",
      "name": "LAS RAICES",
      "provincia": "COLON",
      "tipo": "CA",
      "elevation": 34,
      "lat": 9.091667,
      "lon": -79.987778,
      "id": 93,
      "region": "COLON"
    },
    {
      "numero": "115-016",
      "name": "MONTELIRIO",
      "provincia": "PANAMA",
      "tipo": "CA",
      "elevation": 34,
      "lat": 9.240833,
      "lon": -79.853056,
      "id": 94,
      "region": "PANAMA"
    },
    {
      "numero": "115-017",
      "name": "PELUCA",
      "provincia": "PANAMA",
      "tipo": "CA",
      "elevation": 107,
      "lat": 9.38,
      "lon": -79.560833,
      "id": 95,
      "region": "PANAMA"
    },
    {
      "numero": "115-018",
      "name": "SALAMANCA",
      "provincia": "COLON",
      "tipo": "CA",
      "elevation": 79,
      "lat": 9.304167,
      "lon": -79.583056,
      "id": 96,
      "region": "COLON"
    },
    {
      "numero": "115-019",
      "name": "SAN MIGUEL",
      "provincia": "PANAMA",
      "tipo": "CA",
      "elevation": 520,
      "lat": 9.419722,
      "lon": -79.504167,
      "id": 97,
      "region": "PANAMA"
    },
    {
      "numero": "115-024",
      "name": "CANO(LAGO GATUN)",
      "provincia": "COLON",
      "tipo": "CA",
      "elevation": 33,
      "lat": 9.076389,
      "lon": -79.822778,
      "id": 98,
      "region": "COLON"
    },
    {
      "numero": "115-025",
      "name": "LA HUMEDAD",
      "provincia": "COLON",
      "tipo": "AA",
      "elevation": 30,
      "lat": 9.048056,
      "lon": -80.039167,
      "id": 99,
      "region": "COLON"
    },
    {
      "numero": "115-026",
      "name": "LAGO ALAJUELA",
      "provincia": "PANAMA",
      "tipo": "CA",
      "elevation": 40,
      "lat": 9.206389,
      "lon": -79.620556,
      "id": 100,
      "region": "PANAMA"
    },
    {
      "numero": "115-044",
      "name": "EMPIRE",
      "provincia": "PANAMA",
      "tipo": "CA",
      "elevation": 61,
      "lat": 9.058056,
      "lon": -79.681389,
      "id": 101,
      "region": "PANAMA"
    },
    {
      "numero": "115-071",
      "name": "LOS CANONES",
      "provincia": "PANAMA",
      "tipo": "CA",
      "elevation": 104,
      "lat": 8.948889,
      "lon": -80.0625,
      "id": 102,
      "region": "PANAMA"
    },
    {
      "numero": "115-081",
      "name": "EL CACAO",
      "provincia": "PANAMA",
      "tipo": "CA",
      "elevation": 180,
      "lat": 7.440833,
      "lon": -80.409444,
      "id": 103,
      "region": "PANAMA"
    },
    {
      "numero": "115-083",
      "name": "CIRI GRANDE",
      "provincia": "PANAMA",
      "tipo": "CM",
      "elevation": 200,
      "lat": 8.772222,
      "lon": -80.058056,
      "id": 104,
      "region": "PANAMA"
    },
    {
      "numero": "115-085",
      "name": "GUACHA",
      "provincia": "COLON",
      "tipo": "CA",
      "elevation": 29,
      "lat": 9.176667,
      "lon": -79.938889,
      "id": 105,
      "region": "COLON"
    },
    {
      "numero": "115-086",
      "name": "CASCADAS",
      "provincia": "PANAMA",
      "tipo": "CA",
      "elevation": 47,
      "lat": 9.081389,
      "lon": -79.68,
      "id": 106,
      "region": "PANAMA"
    },
    {
      "numero": "115-088",
      "name": "SARDINILLA",
      "provincia": "COLON",
      "tipo": "AA",
      "elevation": 63,
      "lat": 9.089167,
      "lon": -79.679167,
      "id": 107,
      "region": "COLON"
    },
    {
      "numero": "115-090",
      "name": "RIO PIEDRAS 2",
      "provincia": "PANAMA",
      "tipo": "CA",
      "elevation": 198,
      "lat": 9.281667,
      "lon": -79.398056,
      "id": 108,
      "region": "PANAMA"
    },
    {
      "numero": "115-094",
      "name": "RIO PIEDRAS ARRIBA",
      "provincia": "PANAMA",
      "tipo": "AA",
      "elevation": 254,
      "lat": 9.331667,
      "lon": -79.399167,
      "id": 109,
      "region": "PANAMA"
    },
    {
      "numero": "115-100",
      "name": "SANTA ROSA",
      "provincia": "COLON",
      "tipo": "CA",
      "elevation": 28,
      "lat": 9.185556,
      "lon": -79.654167,
      "id": 110,
      "region": "COLON"
    },
    {
      "numero": "115-101",
      "name": "GATUN WEST",
      "provincia": "COLON",
      "tipo": "AA",
      "elevation": 33,
      "lat": 9.263056,
      "lon": -79.929167,
      "id": 111,
      "region": "COLON"
    },
    {
      "numero": "115-102",
      "name": "JAGUA",
      "provincia": "PANAMA",
      "tipo": "AA",
      "elevation": 546,
      "lat": 8.736944,
      "lon": -80.046944,
      "id": 112,
      "region": "PANAMA"
    },
    {
      "numero": "115-103",
      "name": "VISTAMARES",
      "provincia": "COLON",
      "tipo": "AA",
      "elevation": 969,
      "lat": 9.234167,
      "lon": -79.401389,
      "id": 113,
      "region": "COLON"
    },
    {
      "numero": "115-104",
      "name": "FRIJOLITO",
      "provincia": "COLON",
      "tipo": "CA",
      "elevation": 349,
      "lat": 9.218889,
      "lon": -79.715833,
      "id": 114,
      "region": "COLON"
    },
    {
      "numero": "115-105",
      "name": "ESPERANZA",
      "provincia": "PANAMA",
      "tipo": "CA",
      "elevation": 542,
      "lat": 9.409444,
      "lon": -79.351944,
      "id": 115,
      "region": "PANAMA"
    },
    {
      "numero": "115-106",
      "name": "ARCA SONIA",
      "provincia": "PANAMA",
      "tipo": "AA",
      "elevation": 265,
      "lat": 9.193056,
      "lon": -79.515,
      "id": 116,
      "region": "PANAMA"
    },
    {
      "numero": "115-107",
      "name": "CHAMON",
      "provincia": "PANAMA",
      "tipo": "CA",
      "elevation": 640,
      "lat": 9.341667,
      "lon": -79.318056,
      "id": 117,
      "region": "PANAMA"
    },
    {
      "numero": "115-108",
      "name": "CERRO CAMA",
      "provincia": "PANAMA",
      "tipo": "CA",
      "elevation": 120,
      "lat": 9.026667,
      "lon": -79.905556,
      "id": 118,
      "region": "PANAMA"
    },
    {
      "numero": "115-109",
      "name": "DOS BOCAS",
      "provincia": "PANAMA",
      "tipo": "AA",
      "elevation": 229,
      "lat": 9.4525,
      "lon": -79.430833,
      "id": 119,
      "region": "PANAMA"
    },
    {
      "numero": "115-110",
      "name": "GASPARILLAL",
      "provincia": "PANAMA",
      "tipo": "AA",
      "elevation": 346,
      "lat": 8.863056,
      "lon": -80.015556,
      "id": 120,
      "region": "PANAMA"
    },
    {
      "numero": "115-111",
      "name": "CANO QUEBRADO",
      "provincia": "PANAMA",
      "tipo": "CA",
      "elevation": 32,
      "lat": 9.004444,
      "lon": -79.825833,
      "id": 121,
      "region": "PANAMA"
    },
    {
      "numero": "115-112",
      "name": "ZANGUENGA ACP",
      "provincia": "COLON",
      "tipo": "CA",
      "elevation": 110,
      "lat": 8.954444,
      "lon": -79.866667,
      "id": 122,
      "region": "COLON"
    },
    {
      "numero": "115-113",
      "name": "NUEVO SAN JUAN",
      "provincia": "COLON",
      "tipo": "AA",
      "elevation": 0,
      "lat": 9.215556,
      "lon": -79.660278,
      "id": 123,
      "region": "COLON"
    },
    {
      "numero": "115-114",
      "name": "AGUA BUENA",
      "provincia": "PANAMA",
      "tipo": "CA",
      "elevation": 125,
      "lat": 9.128056,
      "lon": -79.591667,
      "id": 124,
      "region": "PANAMA"
    },
    {
      "numero": "115-115",
      "name": "BARBACOA",
      "provincia": "COLON",
      "tipo": "CA",
      "elevation": 53,
      "lat": 9.121667,
      "lon": -79.796667,
      "id": 125,
      "region": "COLON"
    },
    {
      "numero": "115-116",
      "name": "PUNTA FRIJOLES",
      "provincia": "COLON",
      "tipo": "CA",
      "elevation": 55,
      "lat": 9.160833,
      "lon": -79.805833,
      "id": 126,
      "region": "COLON"
    },
    {
      "numero": "115-117",
      "name": "SANTA CLARA",
      "provincia": "PANAMA",
      "tipo": "CA",
      "elevation": 102,
      "lat": 9.033056,
      "lon": -79.751667,
      "id": 127,
      "region": "PANAMA"
    },
    {
      "numero": "115-118",
      "name": "PUNTA BOHIO",
      "provincia": "COLON",
      "tipo": "CA",
      "elevation": 25,
      "lat": 9.184167,
      "lon": -79.855833,
      "id": 128,
      "region": "COLON"
    },
    {
      "numero": "115-119",
      "name": "INDIO ESTE",
      "provincia": "PANAMA",
      "tipo": "CA",
      "elevation": 101,
      "lat": 9.353056,
      "lon": -79.463333,
      "id": 129,
      "region": "PANAMA"
    },
    {
      "numero": "115-120",
      "name": "AGUA SALUD",
      "provincia": "COLON",
      "tipo": "AA",
      "elevation": 170,
      "lat": 9.224167,
      "lon": -79.760278,
      "id": 130,
      "region": "COLON"
    },
    {
      "numero": "115-121",
      "name": "TRANQUILLA",
      "provincia": "PANAMA",
      "tipo": "AA",
      "elevation": 64,
      "lat": 9.249167,
      "lon": -79.573889,
      "id": 131,
      "region": "PANAMA"
    },
    {
      "numero": "115-122",
      "name": "GATUN VALLE CENTRAL",
      "provincia": "PANAMA",
      "tipo": "CA",
      "elevation": 200,
      "lat": 9.375556,
      "lon": -79.638333,
      "id": 132,
      "region": "PANAMA"
    },
    {
      "numero": "115-123",
      "name": "CHAGRECITO",
      "provincia": "PANAMA",
      "tipo": "CA",
      "elevation": 479,
      "lat": 9.394444,
      "lon": -79.305556,
      "id": 133,
      "region": "PANAMA"
    },
    {
      "numero": "115-125",
      "name": "GOLD HILL",
      "provincia": "PANAMA",
      "tipo": "CA",
      "elevation": 180,
      "lat": 9.043056,
      "lon": -79.659167,
      "id": 134,
      "region": "PANAMA"
    },
    {
      "numero": "115-127",
      "name": "ZANGUENGA",
      "provincia": "PANAMA OESTE",
      "tipo": "AG",
      "elevation": 0,
      "lat": 8.951667,
      "lon": -79.852222,
      "id": 135,
      "region": "PANAMA OESTE"
    },
    {
      "numero": "116-001",
      "name": "COIBA",
      "provincia": "VERAGUAS",
      "tipo": "AA",
      "elevation": 10,
      "lat": 7.501667,
      "lon": -81.698056,
      "id": 136,
      "region": "VERAGUAS"
    },
    {
      "numero": "116-003",
      "name": "CABISMALE",
      "provincia": "VERAGUAS",
      "tipo": "CA",
      "elevation": 378,
      "lat": 7.886944,
      "lon": -81.473056,
      "id": 137,
      "region": "VERAGUAS"
    },
    {
      "numero": "116-004",
      "name": "GUARUMAL",
      "provincia": "VERAGUAS",
      "tipo": "AA",
      "elevation": 47,
      "lat": 7.801667,
      "lon": -81.254167,
      "id": 138,
      "region": "VERAGUAS"
    },
    {
      "numero": "117-012",
      "name": "SAN PEDRO(REFINERIA)",
      "provincia": "COLON",
      "tipo": "CM",
      "elevation": 9,
      "lat": 9.365833,
      "lon": -79.829167,
      "id": 139,
      "region": "COLON"
    },
    {
      "numero": "117-013",
      "name": "SAN ANTONIO",
      "provincia": "COLON",
      "tipo": "AG",
      "elevation": 47,
      "lat": 9.561667,
      "lon": -79.551111,
      "id": 140,
      "region": "COLON"
    },
    {
      "numero": "117-014",
      "name": "EL PORVENIR 2",
      "provincia": "GUNA YALA",
      "tipo": "CA",
      "elevation": 82,
      "lat": 9.556667,
      "lon": -78.948056,
      "id": 141,
      "region": "GUNA YALA"
    },
    {
      "numero": "117-015",
      "name": "LIMON BAY",
      "provincia": "COLON",
      "tipo": "AA",
      "elevation": 3,
      "lat": 9.355556,
      "lon": -79.914444,
      "id": 142,
      "region": "COLON"
    },
    {
      "numero": "117-016",
      "name": "CHICO CABECERA",
      "provincia": "COLON",
      "tipo": "CA",
      "elevation": 332,
      "lat": 9.349722,
      "lon": -79.463333,
      "id": 143,
      "region": "COLON"
    },
    {
      "numero": "117-017",
      "name": "CUANGO",
      "provincia": "COLON",
      "tipo": "AA",
      "elevation": 11,
      "lat": 9.544167,
      "lon": -79.303056,
      "id": 144,
      "region": "COLON"
    },
    {
      "numero": "118-001",
      "name": "EL COBRIZO",
      "provincia": "VERAGUAS",
      "tipo": "CM",
      "elevation": 400,
      "lat": 8.4525,
      "lon": -81.3875,
      "id": 145,
      "region": "VERAGUAS"
    },
    {
      "numero": "118-002",
      "name": "CANAZAS",
      "provincia": "VERAGUAS",
      "tipo": "BC",
      "elevation": 200,
      "lat": 8.314167,
      "lon": -81.208333,
      "id": 146,
      "region": "VERAGUAS"
    },
    {
      "numero": "118-009",
      "name": "CATIVE",
      "provincia": "VERAGUAS",
      "tipo": "CC",
      "elevation": 160,
      "lat": 7.9175,
      "lon": -81.378333,
      "id": 147,
      "region": "VERAGUAS"
    },
    {
      "numero": "120-002",
      "name": "SANTIAGO",
      "provincia": "VERAGUAS",
      "tipo": "AM",
      "elevation": 80,
      "lat": 8.086667,
      "lon": -80.944167,
      "id": 148,
      "region": "VERAGUAS"
    },
    {
      "numero": "120-005",
      "name": "EL MARANON",
      "provincia": "VERAGUAS",
      "tipo": "CC",
      "elevation": 50,
      "lat": 8.033056,
      "lon": -81.216667,
      "id": 149,
      "region": "VERAGUAS"
    },
    {
      "numero": "120-007",
      "name": "LOS LLANOS DE OCU",
      "provincia": "HERRERA",
      "tipo": "AG",
      "elevation": 0,
      "lat": 7.929444,
      "lon": -80.878889,
      "id": 150,
      "region": "HERRERA"
    },
    {
      "numero": "121-006",
      "name": "MULATUPO",
      "provincia": "GUNA YALA",
      "tipo": "AM",
      "elevation": 2,
      "lat": 8.943056,
      "lon": -77.754722,
      "id": 151,
      "region": "GUNA YALA"
    },
    {
      "numero": "121-007",
      "name": "CARTI",
      "provincia": "GUNA YALA",
      "tipo": "CA",
      "elevation": 385,
      "lat": 9.3,
      "lon": -78.983056,
      "id": 152,
      "region": "GUNA YALA"
    },
    {
      "numero": "122-004",
      "name": "MARIATO",
      "provincia": "VERAGUAS",
      "tipo": "CM",
      "elevation": 23,
      "lat": 7.65,
      "lon": -80.983056,
      "id": 153,
      "region": "VERAGUAS"
    },
    {
      "numero": "122-006",
      "name": "CHEPO(ESC.GRANJA)",
      "provincia": "HERRERA",
      "tipo": "BC",
      "elevation": 680,
      "lat": 7.7275,
      "lon": -80.821944,
      "id": 154,
      "region": "HERRERA"
    },
    {
      "numero": "122-008",
      "name": "MARIATO 2",
      "provincia": "VERAGUAS",
      "tipo": "AA",
      "elevation": 3,
      "lat": 7.646667,
      "lon": -80.997778,
      "id": 155,
      "region": "VERAGUAS"
    },
    {
      "numero": "122-009",
      "name": "ARENAS DE QUEBRO 2",
      "provincia": "VERAGUAS",
      "tipo": "AG",
      "elevation": 21,
      "lat": 7.375,
      "lon": -80.856667,
      "id": 156,
      "region": "VERAGUAS"
    },
    {
      "numero": "124-002",
      "name": "LA LLANA",
      "provincia": "LOS SANTOS",
      "tipo": "CC",
      "elevation": 60,
      "lat": 7.501667,
      "lon": -80.550556,
      "id": 157,
      "region": "LOS SANTOS"
    },
    {
      "numero": "124-006",
      "name": "ALTOS DE GÜERA",
      "provincia": "LOS SANTOS",
      "tipo": "CA",
      "elevation": 212,
      "lat": 7.530833,
      "lon": -80.621667,
      "id": 158,
      "region": "LOS SANTOS"
    },
    {
      "numero": "124-007",
      "name": "CERRO QUEMA",
      "provincia": "LOS SANTOS",
      "tipo": "AM",
      "elevation": 377,
      "lat": 7.5975,
      "lon": -80.473889,
      "id": 159,
      "region": "LOS SANTOS"
    },
    {
      "numero": "124-008",
      "name": "GUERA",
      "provincia": "LOS SANTOS",
      "tipo": "CA",
      "elevation": 64,
      "lat": 9.485278,
      "lon": -80.551944,
      "id": 160,
      "region": "LOS SANTOS"
    },
    {
      "numero": "126-002",
      "name": "POCRI",
      "provincia": "LOS SANTOS",
      "tipo": "CC",
      "elevation": 70,
      "lat": 7.661667,
      "lon": -80.118889,
      "id": 161,
      "region": "LOS SANTOS"
    },
    {
      "numero": "126-005",
      "name": "PEDASI",
      "provincia": "LOS SANTOS",
      "tipo": "BC",
      "elevation": 47,
      "lat": 7.526667,
      "lon": -80.023333,
      "id": 162,
      "region": "LOS SANTOS"
    },
    {
      "numero": "126-010",
      "name": "VALLE RICO",
      "provincia": "LOS SANTOS",
      "tipo": "BC",
      "elevation": 173,
      "lat": 7.623056,
      "lon": -80.353056,
      "id": 163,
      "region": "LOS SANTOS"
    },
    {
      "numero": "126-012",
      "name": "LA MIEL",
      "provincia": "LOS SANTOS",
      "tipo": "CC",
      "elevation": 220,
      "lat": 7.549722,
      "lon": -80.333056,
      "id": 164,
      "region": "LOS SANTOS"
    },
    {
      "numero": "126-013",
      "name": "EL CANAFISTULO",
      "provincia": "LOS SANTOS",
      "tipo": "CC",
      "elevation": 140,
      "lat": 7.620556,
      "lon": -80.231667,
      "id": 165,
      "region": "LOS SANTOS"
    },
    {
      "numero": "126-015",
      "name": "CANAS",
      "provincia": "LOS SANTOS",
      "tipo": "CC",
      "elevation": 8,
      "lat": 7.448333,
      "lon": -80.262778,
      "id": 166,
      "region": "LOS SANTOS"
    },
    {
      "numero": "126-019",
      "name": "CACAO",
      "provincia": "LOS SANTOS",
      "tipo": "AA",
      "elevation": 14,
      "lat": 7.440833,
      "lon": -80.409444,
      "id": 167,
      "region": "LOS SANTOS"
    },
    {
      "numero": "126-024",
      "name": "PEDASI 2",
      "provincia": "LOS SANTOS",
      "tipo": "AA",
      "elevation": 15,
      "lat": 7.5325,
      "lon": -80.031389,
      "id": 168,
      "region": "LOS SANTOS"
    },
    {
      "numero": "128-001",
      "name": "LOS SANTOS",
      "provincia": "LOS SANTOS",
      "tipo": "AM",
      "elevation": 16,
      "lat": 7.940556,
      "lon": -80.4175,
      "id": 169,
      "region": "LOS SANTOS"
    },
    {
      "numero": "128-010",
      "name": "PESE",
      "provincia": "HERRERA",
      "tipo": "CC",
      "elevation": 80,
      "lat": 7.9,
      "lon": -80.616667,
      "id": 170,
      "region": "HERRERA"
    },
    {
      "numero": "128-016",
      "name": "PAN DE AZUCAR",
      "provincia": "HERRERA",
      "tipo": "CC",
      "elevation": 250,
      "lat": 7.733056,
      "lon": -80.7,
      "id": 171,
      "region": "HERRERA"
    },
    {
      "numero": "128-017",
      "name": "MACARACAS 2",
      "provincia": "LOS SANTOS",
      "tipo": "AA",
      "elevation": 95,
      "lat": 7.731111,
      "lon": -80.555833,
      "id": 172,
      "region": "LOS SANTOS"
    },
    {
      "numero": "128-018",
      "name": "ESTIBANA",
      "provincia": "LOS SANTOS",
      "tipo": "AA",
      "elevation": 39,
      "lat": 7.838333,
      "lon": -80.523333,
      "id": 173,
      "region": "LOS SANTOS"
    },
    {
      "numero": "130-004",
      "name": "LLANO DE LA CRUZ",
      "provincia": "HERRERA",
      "tipo": "CC",
      "elevation": 60,
      "lat": 7.956389,
      "lon": -80.64,
      "id": 174,
      "region": "HERRERA"
    },
    {
      "numero": "130-006",
      "name": "VALLE RICO DE OCU",
      "provincia": "HERRERA",
      "tipo": "CC",
      "elevation": 53,
      "lat": 7.95,
      "lon": -80.783056,
      "id": 175,
      "region": "HERRERA"
    },
    {
      "numero": "130-007",
      "name": "VALLE RICO 2",
      "provincia": "HERRERA",
      "tipo": "AA",
      "elevation": 141,
      "lat": 7.862222,
      "lon": -80.745833,
      "id": 176,
      "region": "HERRERA"
    },
    {
      "numero": "132-001",
      "name": "EL PALMAR",
      "provincia": "VERAGUAS",
      "tipo": "CM",
      "elevation": 1000,
      "lat": 8.536944,
      "lon": -81.077778,
      "id": 177,
      "region": "VERAGUAS"
    },
    {
      "numero": "132-003",
      "name": "LOS VALLES",
      "provincia": "VERAGUAS",
      "tipo": "CC",
      "elevation": 550,
      "lat": 8.444167,
      "lon": -81.194444,
      "id": 178,
      "region": "VERAGUAS"
    },
    {
      "numero": "132-006",
      "name": "LAGUNA LA YEGUADA",
      "provincia": "VERAGUAS",
      "tipo": "AG",
      "elevation": 640,
      "lat": 8.455833,
      "lon": -80.850833,
      "id": 179,
      "region": "VERAGUAS"
    },
    {
      "numero": "132-008",
      "name": "CERRO VERDE",
      "provincia": "VERAGUAS",
      "tipo": "CC",
      "elevation": 800,
      "lat": 8.504167,
      "lon": -80.841944,
      "id": 180,
      "region": "VERAGUAS"
    },
    {
      "numero": "132-010",
      "name": "CALOBRE",
      "provincia": "VERAGUAS",
      "tipo": "CM",
      "elevation": 120,
      "lat": 8.313889,
      "lon": -80.8375,
      "id": 181,
      "region": "VERAGUAS"
    },
    {
      "numero": "132-012",
      "name": "DIVISA",
      "provincia": "HERRERA",
      "tipo": "AA",
      "elevation": 12,
      "lat": 8.14,
      "lon": -80.704167,
      "id": 182,
      "region": "HERRERA"
    },
    {
      "numero": "132-033",
      "name": "SANTA FE",
      "provincia": "VERAGUAS",
      "tipo": "BC",
      "elevation": 463,
      "lat": 8.508056,
      "lon": -81.073056,
      "id": 183,
      "region": "VERAGUAS"
    },
    {
      "numero": "132-040",
      "name": "GATU LA CRUZ",
      "provincia": "VERAGUAS",
      "tipo": "CA",
      "elevation": 0,
      "lat": 8.5,
      "lon": -81.016667,
      "id": 184,
      "region": "VERAGUAS"
    },
    {
      "numero": "132-041",
      "name": "SANTA FE",
      "provincia": "VERAGUAS",
      "tipo": "AA",
      "elevation": 428,
      "lat": 8.510833,
      "lon": -81.075556,
      "id": 185,
      "region": "VERAGUAS"
    },
    {
      "numero": "134-003",
      "name": "RIO GRANDE",
      "provincia": "COCLE",
      "tipo": "CC",
      "elevation": 20,
      "lat": 8.416667,
      "lon": -80.483056,
      "id": 186,
      "region": "COCLE"
    },
    {
      "numero": "134-004",
      "name": "EL COPE",
      "provincia": "COCLE",
      "tipo": "AM",
      "elevation": 400,
      "lat": 8.623889,
      "lon": -80.580556,
      "id": 187,
      "region": "COCLE"
    },
    {
      "numero": "134-008",
      "name": "SONADORA",
      "provincia": "COCLE",
      "tipo": "CC",
      "elevation": 168,
      "lat": 8.55,
      "lon": -80.333056,
      "id": 188,
      "region": "COCLE"
    },
    {
      "numero": "134-019",
      "name": "LAS HUACAS DE QUIJE",
      "provincia": "COCLE",
      "tipo": "CC",
      "elevation": 440,
      "lat": 8.466667,
      "lon": -80.75,
      "id": 189,
      "region": "COCLE"
    },
    {
      "numero": "134-020",
      "name": "RIO HONDO",
      "provincia": "COCLE",
      "tipo": "CC",
      "elevation": 22,
      "lat": 8.366667,
      "lon": -80.366667,
      "id": 190,
      "region": "COCLE"
    },
    {
      "numero": "134-022",
      "name": "PUERTO POSADA",
      "provincia": "COCLE",
      "tipo": "CC",
      "elevation": 15,
      "lat": 8.366667,
      "lon": -80.4,
      "id": 191,
      "region": "COCLE"
    },
    {
      "numero": "134-023",
      "name": "LAS SABANAS",
      "provincia": "COCLE",
      "tipo": "CC",
      "elevation": 700,
      "lat": 8.566667,
      "lon": -80.683056,
      "id": 192,
      "region": "COCLE"
    },
    {
      "numero": "134-024",
      "name": "OLA",
      "provincia": "COCLE",
      "tipo": "CC",
      "elevation": 100,
      "lat": 8.416667,
      "lon": -80.65,
      "id": 193,
      "region": "COCLE"
    },
    {
      "numero": "134-032",
      "name": "SANTA CRUZ DE PAJONAL",
      "provincia": "COCLE",
      "tipo": "CC",
      "elevation": 319,
      "lat": 8.539167,
      "lon": -80.316389,
      "id": 194,
      "region": "COCLE"
    },
    {
      "numero": "136-001",
      "name": "EL VALLE DE ANTON",
      "provincia": "COCLE",
      "tipo": "AA",
      "elevation": 580,
      "lat": 8.605,
      "lon": -80.123056,
      "id": 195,
      "region": "COCLE"
    },
    {
      "numero": "136-002",
      "name": "ANTON",
      "provincia": "COCLE",
      "tipo": "AA",
      "elevation": 33,
      "lat": 8.383056,
      "lon": -80.266667,
      "id": 196,
      "region": "COCLE"
    },
    {
      "numero": "138-004",
      "name": "RIO HATO",
      "provincia": "COCLE",
      "tipo": "CC",
      "elevation": 30,
      "lat": 8.373056,
      "lon": -80.163056,
      "id": 197,
      "region": "COCLE"
    },
    {
      "numero": "138-005",
      "name": "CHAME",
      "provincia": "PANAMA",
      "tipo": "CC",
      "elevation": 30,
      "lat": 8.593056,
      "lon": -79.878056,
      "id": 198,
      "region": "PANAMA"
    },
    {
      "numero": "138-008",
      "name": "SANTA RITA",
      "provincia": "COCLE",
      "tipo": "CC",
      "elevation": 180,
      "lat": 8.498889,
      "lon": -80.188056,
      "id": 199,
      "region": "COCLE"
    },
    {
      "numero": "138-016",
      "name": "CERRO CAMPANA",
      "provincia": "PANAMA",
      "tipo": "AG",
      "elevation": 750,
      "lat": 8.666944,
      "lon": -79.926389,
      "id": 200,
      "region": "PANAMA"
    },
    {
      "numero": "138-017",
      "name": "CHAME2",
      "provincia": "PANAMA",
      "tipo": "CA",
      "elevation": 25,
      "lat": 8.578056,
      "lon": -79.885,
      "id": 201,
      "region": "PANAMA"
    },
    {
      "numero": "138-018",
      "name": "CAPIRA2",
      "provincia": "PANAMA",
      "tipo": "CA",
      "elevation": 120,
      "lat": 8.754167,
      "lon": -79.878056,
      "id": 202,
      "region": "PANAMA"
    },
    {
      "numero": "140-005",
      "name": "CAIMITO",
      "provincia": "PANAMA",
      "tipo": "CC",
      "elevation": 180,
      "lat": 8.813333,
      "lon": -79.939167,
      "id": 203,
      "region": "PANAMA"
    },
    {
      "numero": "140-006",
      "name": "SE CHORRERA",
      "provincia": "PANAMA",
      "tipo": "AA",
      "elevation": 46,
      "lat": 8.907778,
      "lon": -79.778333,
      "id": 204,
      "region": "PANAMA"
    },
    {
      "numero": "140-008",
      "name": "MASTRANTO",
      "provincia": "PANAMA",
      "tipo": "CC",
      "elevation": 21,
      "lat": 8.908056,
      "lon": -79.7625,
      "id": 205,
      "region": "PANAMA"
    },
    {
      "numero": "142-004",
      "name": "BALBOA HEIGHTS",
      "provincia": "PANAMA",
      "tipo": "CA",
      "elevation": 30,
      "lat": 8.959167,
      "lon": -79.554167,
      "id": 206,
      "region": "PANAMA"
    },
    {
      "numero": "142-007",
      "name": "PEDRO MIGUEL",
      "provincia": "PANAMA",
      "tipo": "BA",
      "elevation": 31,
      "lat": 9.022778,
      "lon": -79.616944,
      "id": 207,
      "region": "PANAMA"
    },
    {
      "numero": "142-013",
      "name": "CULEBRA",
      "provincia": "PANAMA",
      "tipo": "AA",
      "elevation": 64,
      "lat": 9.053056,
      "lon": -79.650556,
      "id": 208,
      "region": "PANAMA"
    },
    {
      "numero": "142-014",
      "name": "RIO COCOLI",
      "provincia": "PANAMA",
      "tipo": "CA",
      "elevation": 37,
      "lat": 8.982222,
      "lon": -79.593333,
      "id": 209,
      "region": "PANAMA"
    },
    {
      "numero": "142-015",
      "name": "MIRAFLORES",
      "provincia": "PANAMA",
      "tipo": "CA",
      "elevation": 20,
      "lat": 9.014167,
      "lon": -79.609722,
      "id": 210,
      "region": "PANAMA"
    },
    {
      "numero": "142-017",
      "name": "BALBOA (FAA)",
      "provincia": "PANAMA",
      "tipo": "AA",
      "elevation": 10,
      "lat": 8.968889,
      "lon": -79.549167,
      "id": 211,
      "region": "PANAMA"
    },
    {
      "numero": "142-018",
      "name": "DIABLO HEIGHTS",
      "provincia": "PANAMA",
      "tipo": "CA",
      "elevation": 5,
      "lat": 8.965556,
      "lon": -79.573056,
      "id": 212,
      "region": "PANAMA"
    },
    {
      "numero": "142-020",
      "name": "HATO PINTADO",
      "provincia": "PANAMA",
      "tipo": "CA",
      "elevation": 45,
      "lat": 9.009167,
      "lon": -79.514167,
      "id": 213,
      "region": "PANAMA"
    },
    {
      "numero": "142-025",
      "name": "CERRO PELON",
      "provincia": "PANAMA",
      "tipo": "CA",
      "elevation": 770,
      "lat": 9.208889,
      "lon": -79.374444,
      "id": 214,
      "region": "PANAMA"
    },
    {
      "numero": "142-026",
      "name": "SUN TOWER (EL DORADO)",
      "provincia": "PANAMA",
      "tipo": "AA",
      "elevation": 80,
      "lat": 9.011667,
      "lon": -79.535278,
      "id": 215,
      "region": "PANAMA"
    },
    {
      "numero": "142-028",
      "name": "AMADOR",
      "provincia": "PANAMA",
      "tipo": "CA",
      "elevation": 2,
      "lat": 8.916667,
      "lon": -79.534444,
      "id": 216,
      "region": "PANAMA"
    },
    {
      "numero": "142-029",
      "name": "COROZAL OESTE",
      "provincia": "PANAMA",
      "tipo": "AA",
      "elevation": 7,
      "lat": 8.980556,
      "lon": -79.574444,
      "id": 217,
      "region": "PANAMA"
    },
    {
      "numero": "142-030",
      "name": "CERRO COCOLI",
      "provincia": "PANAMA",
      "tipo": "CA",
      "elevation": 72,
      "lat": 8.990278,
      "lon": -79.591667,
      "id": 218,
      "region": "PANAMA"
    },
    {
      "numero": "142-031",
      "name": "SITIO VICTOR VALDES",
      "provincia": "PANAMA",
      "tipo": "CA",
      "elevation": 0,
      "lat": 9.006667,
      "lon": -79.619167,
      "id": 219,
      "region": "PANAMA"
    },
    {
      "numero": "142-032",
      "name": "ISLA BRUJA CHIQUITA",
      "provincia": "PANAMA",
      "tipo": "CA",
      "elevation": 24,
      "lat": 9.210556,
      "lon": -79.916944,
      "id": 220,
      "region": "PANAMA"
    },
    {
      "numero": "142-034",
      "name": "NUEVA BORINQUEN",
      "provincia": "PANAMA",
      "tipo": "AA",
      "elevation": 0,
      "lat": 8.986389,
      "lon": -79.598056,
      "id": 221,
      "region": "PANAMA"
    },
    {
      "numero": "142-035",
      "name": "COCOLI 326",
      "provincia": "PANAMA",
      "tipo": "AA",
      "elevation": 40,
      "lat": 8.982222,
      "lon": -79.593333,
      "id": 222,
      "region": "PANAMA"
    },
    {
      "numero": "142-036",
      "name": "PAITILLA",
      "provincia": "PANAMA",
      "tipo": "BA",
      "elevation": 7,
      "lat": 8.9875,
      "lon": -79.499722,
      "id": 223,
      "region": "PANAMA"
    },
    {
      "numero": "142-037",
      "name": "CURUNDU",
      "provincia": "PANAMA",
      "tipo": "AA",
      "elevation": 26,
      "lat": 8.978333,
      "lon": -79.547222,
      "id": 224,
      "region": "PANAMA"
    },
    {
      "numero": "142-042",
      "name": "CND",
      "provincia": "PANAMA",
      "tipo": "CA",
      "elevation": 42,
      "lat": 9.036944,
      "lon": -79.525556,
      "id": 225,
      "region": "PANAMA"
    },
    {
      "numero": "142-043",
      "name": "PARQUE OMAR",
      "provincia": "PANAMA",
      "tipo": "BA",
      "elevation": 0,
      "lat": 9.000556,
      "lon": -79.507222,
      "id": 226,
      "region": "PANAMA"
    },
    {
      "numero": "144-005",
      "name": "RANCHO CAFE",
      "provincia": "PANAMA",
      "tipo": "AA",
      "elevation": 160,
      "lat": 9.133333,
      "lon": -79.382222,
      "id": 227,
      "region": "PANAMA"
    },
    {
      "numero": "144-007",
      "name": "JUAN DIAZ LOS PUEBLOS",
      "provincia": "PANAMA",
      "tipo": "CC",
      "elevation": 12,
      "lat": 9.048333,
      "lon": -79.448056,
      "id": 228,
      "region": "PANAMA"
    },
    {
      "numero": "144-009",
      "name": "VILLA LUCRE",
      "provincia": "PANAMA",
      "tipo": "AA",
      "elevation": 65,
      "lat": 9.073333,
      "lon": -79.48,
      "id": 229,
      "region": "PANAMA"
    },
    {
      "numero": "144-011",
      "name": "TOCUMEN 2",
      "provincia": "PANAMA",
      "tipo": "AA",
      "elevation": 38,
      "lat": 9.081944,
      "lon": -79.405556,
      "id": 230,
      "region": "PANAMA"
    },
    {
      "numero": "144-012",
      "name": "JUAN DIAZ",
      "provincia": "PANAMA",
      "tipo": "AA",
      "elevation": 16,
      "lat": 9.036667,
      "lon": -79.471667,
      "id": 231,
      "region": "PANAMA"
    },
    {
      "numero": "146-002",
      "name": "LOMA BONITA",
      "provincia": "PANAMA",
      "tipo": "CC",
      "elevation": 100,
      "lat": 9.171389,
      "lon": -79.260833,
      "id": 232,
      "region": "PANAMA"
    },
    {
      "numero": "148-001",
      "name": "CHEPO",
      "provincia": "PANAMA",
      "tipo": "CM",
      "elevation": 30,
      "lat": 9.166667,
      "lon": -79.083056,
      "id": 233,
      "region": "PANAMA"
    },
    {
      "numero": "148-004",
      "name": "PIRIA (POBLADO)",
      "provincia": "PANAMA",
      "tipo": "CM",
      "elevation": 80,
      "lat": 9.123889,
      "lon": -78.325278,
      "id": 234,
      "region": "PANAMA"
    },
    {
      "numero": "148-008",
      "name": "RIO MAJE",
      "provincia": "PANAMA",
      "tipo": "CC",
      "elevation": 70,
      "lat": 9.016667,
      "lon": -78.733056,
      "id": 235,
      "region": "PANAMA"
    },
    {
      "numero": "148-011",
      "name": "BAYANO CAMPAMENTO",
      "provincia": "PANAMA",
      "tipo": "CA",
      "elevation": 70,
      "lat": 9.183056,
      "lon": -78.886667,
      "id": 236,
      "region": "PANAMA"
    },
    {
      "numero": "148-024",
      "name": "RIO DIABLO",
      "provincia": "PANAMA",
      "tipo": "CA",
      "elevation": 146,
      "lat": 9.221389,
      "lon": -78.509167,
      "id": 237,
      "region": "PANAMA"
    },
    {
      "numero": "148-036",
      "name": "IPETI",
      "provincia": "PANAMA",
      "tipo": "CA",
      "elevation": 67,
      "lat": 8.976667,
      "lon": -78.505556,
      "id": 238,
      "region": "PANAMA"
    },
    {
      "numero": "148-039",
      "name": "RIO INDIO MAJE",
      "provincia": "PANAMA",
      "tipo": "AA",
      "elevation": 200,
      "lat": 8.969444,
      "lon": -78.696667,
      "id": 239,
      "region": "PANAMA"
    },
    {
      "numero": "148-048",
      "name": "CHEPO 2",
      "provincia": "PANAMA",
      "tipo": "AG",
      "elevation": 26,
      "lat": 9.169722,
      "lon": -79.104444,
      "id": 240,
      "region": "PANAMA"
    },
    {
      "numero": "150-002",
      "name": "CHIMAN",
      "provincia": "PANAMA",
      "tipo": "BC",
      "elevation": 30,
      "lat": 8.716667,
      "lon": -78.633056,
      "id": 241,
      "region": "PANAMA"
    },
    {
      "numero": "150-004",
      "name": "ISLA CONTADORA",
      "provincia": "PANAMA",
      "tipo": "CA",
      "elevation": 10,
      "lat": 8.628056,
      "lon": -79.036389,
      "id": 242,
      "region": "PANAMA"
    },
    {
      "numero": "152-005",
      "name": "RIO CONGO",
      "provincia": "DARIEN",
      "tipo": "CM",
      "elevation": 5,
      "lat": 8.4025,
      "lon": -78.369444,
      "id": 243,
      "region": "DARIEN"
    },
    {
      "numero": "152-006",
      "name": "SANTA FE",
      "provincia": "DARIEN",
      "tipo": "AA",
      "elevation": 36,
      "lat": 8.659167,
      "lon": -78.133333,
      "id": 244,
      "region": "DARIEN"
    },
    {
      "numero": "152-008",
      "name": "AGUA FRIA",
      "provincia": "DARIEN",
      "tipo": "AG",
      "elevation": 0,
      "lat": 8.813333,
      "lon": -78.186389,
      "id": 245,
      "region": "DARIEN"
    },
    {
      "numero": "154-018",
      "name": "METETI",
      "provincia": "DARIEN",
      "tipo": "CA",
      "elevation": 10,
      "lat": 8.495833,
      "lon": -77.978333,
      "id": 246,
      "region": "DARIEN"
    },
    {
      "numero": "154-021",
      "name": "LA PULIDA",
      "provincia": "DARIEN",
      "tipo": "AA",
      "elevation": 47,
      "lat": 8.303056,
      "lon": -77.619167,
      "id": 247,
      "region": "DARIEN"
    },
    {
      "numero": "154-023",
      "name": "MORTI",
      "provincia": "DARIEN",
      "tipo": "CA",
      "elevation": 49,
      "lat": 8.840833,
      "lon": -77.978333,
      "id": 248,
      "region": "DARIEN"
    },
    {
      "numero": "156-004",
      "name": "BOCA DE CUPE 2",
      "provincia": "DARIEN",
      "tipo": "AA",
      "elevation": 20,
      "lat": 8.032778,
      "lon": -77.585278,
      "id": 249,
      "region": "DARIEN"
    },
    {
      "numero": "158-003",
      "name": "CAMOGANTI",
      "provincia": "DARIEN",
      "tipo": "CM",
      "elevation": 17,
      "lat": 8.038611,
      "lon": -77.885278,
      "id": 250,
      "region": "DARIEN"
    },
    {
      "numero": "162-001",
      "name": "GARACHINE",
      "provincia": "DARIEN",
      "tipo": "BC",
      "elevation": 10,
      "lat": 8.065278,
      "lon": -78.366389,
      "id": 251,
      "region": "DARIEN"
    },
    {
      "numero": "162-003",
      "name": "BOCA DE TRAMPA",
      "provincia": "DARIEN",
      "tipo": "CM",
      "elevation": 100,
      "lat": 7.936944,
      "lon": -78.141944,
      "id": 252,
      "region": "DARIEN"
    },
    {
      "numero": "164-001",
      "name": "JAQUE",
      "provincia": "DARIEN",
      "tipo": "AA",
      "elevation": 10,
      "lat": 7.516667,
      "lon": -78.164444,
      "id": 253,
      "region": "DARIEN"
    }
  ]
}